{
  "cities": [
    {
      "name": "Berlin",
      "lat": "52.5200",
      "lng": "13.4050"
    },
    {
      "name": "Cologne",
      "lat": "50.9375",
      "lng": "6.9603"
    },
    {
      "name": "Hamburg",
      "lat": "53.5511",
      "lng": "9.9937"
    },
    {
      "name": "Munich",
      "lat": "48.1351",
      "lng": "11.5820"
    },
    {
      "name": "Frankfurt",
      "lat": "50.1109",
      "lng": "8.6821"
    }
  ]
}